[
    {
      "Id" : "EAC96A93-FD47-4A9A-8771-0005805B9655",
      "Created" : "2020-02-18T16:14:59Z",
      "Updated" : "2020-02-18T16:19:52Z",
      "Latitude" : 48.931563,
      "Longitude" : 11.991354,
      "Name" : "Am Jachthafen, Kelheim",
      "WaterFk" : "D19708CA-AC42-4AD4-8D62-E85722F946F6",
      "Rating" : 0,
      "Comment" : "Sehr kleiner Parkplatz (Google Maps) und Anleger, welche wohl zu der Marina gehören.",
      "Street" : "Am Jachthafen 13",
      "Postalcode" : "93309 ",
      "City" : "Kelheim",
      "Costs" : -1.00,
      "Pro" : null,
      "Contra" : null,
      "PortFk" : "18459D59-D573-4C98-A883-8938454C2645",
      "Country" : "DE"
    },
    {
      "Id" : "1A52E96C-432D-40BF-BA1E-01361DF6C798",
      "Created" : "2020-01-29T20:46:26Z",
      "Updated" : "2020-01-29T20:55:07Z",
      "Latitude" : 53.151277,
      "Longitude" : 11.04996,
      "Name" : "An der Kirche, Hitzacker (Elbe)",
      "WaterFk" : "DE3724FD-80A8-46F9-8B5B-DB378A84048C",
      "Rating" : 0,
      "Comment" : null,
      "Street" : "An der Kirche 6",
      "Postalcode" : "29456 ",
      "City" : "Hitzacker (Elbe)",
      "Costs" : -1.00,
      "Pro" : null,
      "Contra" : null,
      "PortFk" : "B9EB4C68-3661-4531-8EF2-E7ACCFD0ADCB",
      "Country" : "DE"
    },
    {
      "Id" : "99164862-4C65-485D-B401-02A082A33CF3",
      "Created" : "2020-02-08T19:27:56Z",
      "Updated" : "2020-02-08T19:32:17Z",
      "Latitude" : 51.861414,
      "Longitude" : 12.232185,
      "Name" : "Am Peisker, Dessau-Roßlau",
      "WaterFk" : "DE3724FD-80A8-46F9-8B5B-DB378A84048C",
      "Rating" : 0,
      "Comment" : null,
      "Street" : "Am Peisker 1",
      "Postalcode" : "06844",
      "City" : "Dessau-Roßlau",
      "Costs" : -1.00,
      "Pro" : null,
      "Contra" : null,
      "PortFk" : "CD5DC3EA-85BD-4212-BDC0-8D5DE08C7E0F",
      "Country" : "DE"
    },
    {
      "Id" : "1FE7EE5A-E9AF-4E86-9664-04A0165CE838",
      "Created" : "2019-12-10T08:02:42Z",
      "Updated" : null,
      "Latitude" : 49.983731,
      "Longitude" : 7.119855,
      "Name" : "Stellplatz, Enkirch",
      "WaterFk" : "AAE1F1D4-F79F-4C3A-83D5-DEBFFD711981",
      "Rating" : 5,
      "Comment" : null,
      "Street" : "",
      "Postalcode" : "56850",
      "City" : "Enkirch",
      "Costs" : 0.00,
      "Pro" : null,
      "Contra" : null,
      "PortFk" : null,
      "Country" : "DE"
    },
    {
      "Id" : "C1040606-2917-46CB-8FBC-0720F90259D7",
      "Created" : "2020-01-28T21:55:14Z",
      "Updated" : null,
      "Latitude" : 51.103236,
      "Longitude" : 13.624282,
      "Name" : "Uferstraße, Radebeul",
      "WaterFk" : "DE3724FD-80A8-46F9-8B5B-DB378A84048C",
      "Rating" : 0,
      "Comment" : null,
      "Street" : "Uferstraße 6A",
      "Postalcode" : "01445",
      "City" : "Radebeul",
      "Costs" : -1.00,
      "Pro" : null,
      "Contra" : null,
      "PortFk" : null,
      "Country" : "DE"
    },
    {
      "Id" : "3CC6E532-E3C9-4F5D-816E-11A5159EEE81",
      "Created" : "2020-01-13T10:45:52Z",
      "Updated" : null,
      "Latitude" : 50.874217,
      "Longitude" : 7.048377,
      "Name" : "Hauptstraße Köln Zündorf",
      "WaterFk" : "A88EA916-5E6C-4D83-83A9-1D4FDFEF25EC",
      "Rating" : 0,
      "Comment" : null,
      "Street" : "Hauptstraße 245",
      "Postalcode" : "51143",
      "City" : "Köln, Zündorf",
      "Costs" : -1.00,
      "Pro" : null,
      "Contra" : null,
      "PortFk" : "A7B8C874-A297-4305-80A3-470AC05B0419",
      "Country" : "DE"
    },
    {
      "Id" : "79FB7876-BFFD-4013-863E-129E864E11D2",
      "Created" : "2020-02-08T19:39:31Z",
      "Updated" : null,
      "Latitude" : 53.460388,
      "Longitude" : 12.026471,
      "Name" : "Schulstraße, Lübz",
      "WaterFk" : "85189101-4FD6-466A-B1D1-A598BD85C591",
      "Rating" : 0,
      "Comment" : null,
      "Street" : "Schulstraße 8a",
      "Postalcode" : "19386",
      "City" : "Lübz",
      "Costs" : -1.00,
      "Pro" : null,
      "Contra" : null,
      "PortFk" : null,
      "Country" : "DE"
    },
    {
      "Id" : "C41BB24F-FBD7-4452-87D3-16947A2F7611",
      "Created" : "2020-01-29T13:42:08Z",
      "Updated" : "2020-01-29T15:15:11Z",
      "Latitude" : 51.352376,
      "Longitude" : 13.237491,
      "Name" : "Riesaer Str., Strehla",
      "WaterFk" : "DE3724FD-80A8-46F9-8B5B-DB378A84048C",
      "Rating" : 0,
      "Comment" : null,
      "Street" : "Riesaer Str. 3",
      "Postalcode" : "01616",
      "City" : "Strehla",
      "Costs" : -1.00,
      "Pro" : null,
      "Contra" : null,
      "PortFk" : null,
      "Country" : "DE"
    },
    {
      "Id" : "045A3C0B-CE2F-486F-8C69-16DFD667DCBB",
      "Created" : "2020-03-06T13:24:00Z",
      "Updated" : null,
      "Latitude" : 52.653759,
      "Longitude" : 9.943529,
      "Name" : "Schwarzer Weg, Hambühren",
      "WaterFk" : "FFA035BD-4C18-4A12-9BC7-5E66FC29E149",
      "Rating" : 0,
      "Comment" : null,
      "Street" : "Schwarzer Weg",
      "Postalcode" : "29313",
      "City" : "Hambühren",
      "Costs" : -1.00,
      "Pro" : null,
      "Contra" : null,
      "PortFk" : null,
      "Country" : "DE"
    },
    {
      "Id" : "C6E16AAA-733B-4E1E-AB0E-19BB82669E0D",
      "Created" : "2019-12-10T08:02:42Z",
      "Updated" : null,
      "Latitude" : 52.5534,
      "Longitude" : 9.1123,
      "Name" : "Fährstraße 7, Landesbergen",
      "WaterFk" : "F965ECF6-2057-479D-A571-3F4E30C1E493",
      "Rating" : -1,
      "Comment" : null,
      "Street" : "Fährstraße 7",
      "Postalcode" : "31628",
      "City" : "Landesbergen",
      "Costs" : 0.00,
      "Pro" : null,
      "Contra" : null,
      "PortFk" : null,
      "Country" : "DE"
    },
    {
      "Id" : "BDD0E2FC-DF8A-475A-8F41-19CDE1EAD6CF",
      "Created" : "2020-02-05T15:37:13Z",
      "Updated" : "2020-02-05T15:40:13Z",
      "Latitude" : 52.12405,
      "Longitude" : 11.644516,
      "Name" : "Am Winterhafen, Werder",
      "WaterFk" : "DE3724FD-80A8-46F9-8B5B-DB378A84048C",
      "Rating" : 0,
      "Comment" : null,
      "Street" : "Am Winterhafen 1c",
      "Postalcode" : "39114",
      "City" : "Werder, Magdeburg",
      "Costs" : -1.00,
      "Pro" : null,
      "Contra" : null,
      "PortFk" : "009D13E0-5CE0-4210-9CA6-92B2014B8D86",
      "Country" : "DE"
    },
    {
      "Id" : "846054D2-E4B4-47E9-A044-1D8B8607A572",
      "Created" : "2020-01-06T08:22:18Z",
      "Updated" : null,
      "Latitude" : 53.424784,
      "Longitude" : 10.292842,
      "Name" : "Drage, Stover Strand",
      "WaterFk" : "DE3724FD-80A8-46F9-8B5B-DB378A84048C",
      "Rating" : 0,
      "Comment" : null,
      "Street" : "Stover Strand 10",
      "Postalcode" : "21423",
      "City" : "Drage",
      "Costs" : -1.00,
      "Pro" : null,
      "Contra" : null,
      "PortFk" : null,
      "Country" : "DE"
    },
    {
      "Id" : "3ED80E17-7355-4C6F-8225-1EBCFA24E234",
      "Created" : "2020-02-08T20:14:17Z",
      "Updated" : null,
      "Latitude" : 52.771804,
      "Longitude" : 9.428293,
      "Name" : "Dorfstraße, Frankenfeld\/Rethem",
      "WaterFk" : "FFA035BD-4C18-4A12-9BC7-5E66FC29E149",
      "Rating" : 0,
      "Comment" : null,
      "Street" : "Dorfstraße 1",
      "Postalcode" : "27336",
      "City" : "Frankenfeld\/Rethem",
      "Costs" : -1.00,
      "Pro" : null,
      "Contra" : null,
      "PortFk" : null,
      "Country" : "DE"
    },
    {
      "Id" : "A982814D-81F1-4756-B6D8-1FB6D641681A",
      "Created" : "2020-02-05T12:40:51Z",
      "Updated" : null,
      "Latitude" : 52.268977,
      "Longitude" : 11.765405,
      "Name" : "am See, Burg (bei Magdeburg)",
      "WaterFk" : "DE3724FD-80A8-46F9-8B5B-DB378A84048C",
      "Rating" : 0,
      "Comment" : "Nicht direkt an der Elbe, aber sie ist von dort aus erreichbar. Eine Marina scheint angeschlossen zu sein, aber leider habe ich keine weiteren Informationen dazu gefunden.",
      "Street" : "am See 8",
      "Postalcode" : "39288",
      "City" : "Burg (bei Magdeburg)",
      "Costs" : -1.00,
      "Pro" : null,
      "Contra" : null,
      "PortFk" : null,
      "Country" : "DE"
    },
    {
      "Id" : "B9D83D5C-502D-40F2-887F-2D13A198EE6B",
      "Created" : "2020-01-27T11:24:02Z",
      "Updated" : null,
      "Latitude" : 50.909764,
      "Longitude" : 14.185282,
      "Name" : "Krippen, Bad Schandau",
      "WaterFk" : "DE3724FD-80A8-46F9-8B5B-DB378A84048C",
      "Rating" : 0,
      "Comment" : null,
      "Street" : "Elbufer 109",
      "Postalcode" : "01814 ",
      "City" : "Bad Schandau",
      "Costs" : -1.00,
      "Pro" : null,
      "Contra" : null,
      "PortFk" : null,
      "Country" : "DE"
    },
    {
      "Id" : "C8A41288-FBAF-4C01-9D49-2E0532AAC73E",
      "Created" : "2020-01-08T06:27:50Z",
      "Updated" : null,
      "Latitude" : 51.204133,
      "Longitude" : 6.733538,
      "Name" : "Fährstraße, Düsseldorf",
      "WaterFk" : "A88EA916-5E6C-4D83-83A9-1D4FDFEF25EC",
      "Rating" : 0,
      "Comment" : null,
      "Street" : "Fährstraße 255",
      "Postalcode" : "40221",
      "City" : "Düsseldorf",
      "Costs" : -1.00,
      "Pro" : null,
      "Contra" : null,
      "PortFk" : null,
      "Country" : "DE"
    },
    {
      "Id" : "ED16C4F7-4EBB-4BB7-9EB6-30B9DEFCE298",
      "Created" : "2019-12-18T06:41:16Z",
      "Updated" : null,
      "Latitude" : 53.380933,
      "Longitude" : 11.586434,
      "Name" : "Hafen Neustadt-Glewe",
      "WaterFk" : "85189101-4FD6-466A-B1D1-A598BD85C591",
      "Rating" : 0,
      "Comment" : null,
      "Street" : "Alte Burg",
      "Postalcode" : "19306",
      "City" : "Neustadt-Glewe",
      "Costs" : -1.00,
      "Pro" : null,
      "Contra" : null,
      "PortFk" : null,
      "Country" : "DE"
    },
    {
      "Id" : "139CC939-063A-4E08-BAD5-334B878979E8",
      "Created" : "2020-03-29T08:42:07Z",
      "Updated" : "2020-03-29T08:44:55Z",
      "Latitude" : 48.638664,
      "Longitude" : 13.186365,
      "Name" : "Am Bootshafen, Vilshofen",
      "WaterFk" : "D19708CA-AC42-4AD4-8D62-E85722F946F6",
      "Rating" : 0,
      "Comment" : null,
      "Street" : "Am Bootshafen 1",
      "Postalcode" : "94474",
      "City" : "Vilshofen an der Donau",
      "Costs" : -1.00,
      "Pro" : null,
      "Contra" : null,
      "PortFk" : "56456D2D-E2B6-4442-A457-D1A409D2DE09",
      "Country" : "DE"
    },
    {
      "Id" : "E95987A3-4D7C-4EE8-9375-34075908E14E",
      "Created" : "2019-12-18T08:40:48Z",
      "Updated" : null,
      "Latitude" : 53.509798,
      "Longitude" : 12.648762,
      "Name" : "Campingplatz Kamerun",
      "WaterFk" : "5A32701A-3A43-40B3-ABFA-A35A6EE6E4C5",
      "Rating" : 5,
      "Comment" : null,
      "Street" : "Zur Stillen Bucht",
      "Postalcode" : "17192",
      "City" : "Waren (Müritz)",
      "Costs" : 7.00,
      "Pro" : null,
      "Contra" : null,
      "PortFk" : null,
      "Country" : "DE"
    },
    {
      "Id" : "B02AFEDD-C853-468E-99B7-342F3ADB60BE",
      "Created" : "2020-02-08T20:20:47Z",
      "Updated" : null,
      "Latitude" : 52.674253,
      "Longitude" : 9.898791,
      "Name" : "Auf der Hude, Winsen (Aller)",
      "WaterFk" : "FFA035BD-4C18-4A12-9BC7-5E66FC29E149",
      "Rating" : 0,
      "Comment" : null,
      "Street" : "Auf der Hude 177",
      "Postalcode" : "29308",
      "City" : "Winsen (Aller)",
      "Costs" : -1.00,
      "Pro" : null,
      "Contra" : null,
      "PortFk" : null,
      "Country" : "DE"
    },
    {
      "Id" : "24F61B47-4BE7-412D-B954-348113F5D04F",
      "Created" : "2020-03-22T18:19:17Z",
      "Updated" : "2020-03-22T18:25:40Z",
      "Latitude" : 48.558901,
      "Longitude" : 13.620558,
      "Name" : "Am Hafen, Obernzell",
      "WaterFk" : "D19708CA-AC42-4AD4-8D62-E85722F946F6",
      "Rating" : 0,
      "Comment" : null,
      "Street" : "Am Hafen 4",
      "Postalcode" : "94130",
      "City" : "Obernzell",
      "Costs" : -1.00,
      "Pro" : null,
      "Contra" : null,
      "PortFk" : "61217026-33AD-4056-AD04-4568D8055A34",
      "Country" : "DE"
    },
    {
      "Id" : "82388161-5BBF-4093-B4AE-3557FF72BC32",
      "Created" : "2020-01-24T14:27:46Z",
      "Updated" : null,
      "Latitude" : 53.6189,
      "Longitude" : 9.5024,
      "Name" : "Brunshausen, Stade",
      "WaterFk" : "714B47C3-C63B-426F-ACCC-BCB7EBDDE0E3",
      "Rating" : 0,
      "Comment" : null,
      "Street" : "Brunshausen 3",
      "Postalcode" : "21683",
      "City" : "Stadersand",
      "Costs" : -1.00,
      "Pro" : null,
      "Contra" : null,
      "PortFk" : null,
      "Country" : "DE"
    },
    {
      "Id" : "FA102135-AED6-425E-A2DE-392AE4D7A668",
      "Created" : "2020-01-29T20:26:21Z",
      "Updated" : null,
      "Latitude" : 53.426156,
      "Longitude" : 10.377307,
      "Name" : "Elbuferstraße, Geesthacht",
      "WaterFk" : "DE3724FD-80A8-46F9-8B5B-DB378A84048C",
      "Rating" : 0,
      "Comment" : null,
      "Street" : "Elbuferstraße 3",
      "Postalcode" : "21502",
      "City" : "Geesthacht",
      "Costs" : -1.00,
      "Pro" : null,
      "Contra" : null,
      "PortFk" : null,
      "Country" : "DE"
    },
    {
      "Id" : "36B652E4-86FB-4041-BC5D-39AD4F6838FC",
      "Created" : "2020-01-13T10:22:41Z",
      "Updated" : null,
      "Latitude" : 50.899874,
      "Longitude" : 6.986186,
      "Name" : "Marienburg Heinrich-Lübke-Ufer",
      "WaterFk" : "A88EA916-5E6C-4D83-83A9-1D4FDFEF25EC",
      "Rating" : 0,
      "Comment" : null,
      "Street" : "Heinrich-Lübke-Ufer",
      "Postalcode" : "50996",
      "City" : "Köln",
      "Costs" : -1.00,
      "Pro" : null,
      "Contra" : null,
      "PortFk" : null,
      "Country" : "DE"
    },
    {
      "Id" : "C25CFFFB-BC8D-430E-B005-3FE5654967B0",
      "Created" : "2019-12-10T08:02:42Z",
      "Updated" : "2020-03-17T14:00:00Z",
      "Latitude" : 51.359049,
      "Longitude" : 6.950825,
      "Name" : "Campingplatz Cammerzell",
      "WaterFk" : "28E2B1B8-E353-4174-99A5-816229C68BD1",
      "Rating" : -1,
      "Comment" : null,
      "Street" : "Werdener Str.",
      "Postalcode" : "45219",
      "City" : "Essen, Werden",
      "Costs" : -1.00,
      "Pro" : null,
      "Contra" : null,
      "PortFk" : null,
      "Country" : "DE"
    },
    {
      "Id" : "600EEBCE-5DD4-4DE1-9068-401744A74C01",
      "Created" : "2019-12-10T08:02:42Z",
      "Updated" : null,
      "Latitude" : 51.3366,
      "Longitude" : 6.69,
      "Name" : "Crefelder Yachtclub",
      "WaterFk" : "A88EA916-5E6C-4D83-83A9-1D4FDFEF25EC",
      "Rating" : -1,
      "Comment" : null,
      "Street" : "Bataverstraße",
      "Postalcode" : "47809",
      "City" : "Krefeld, Gellep-Stratum",
      "Costs" : 10.00,
      "Pro" : null,
      "Contra" : null,
      "PortFk" : null,
      "Country" : "DE"
    },
    {
      "Id" : "AB45FAE2-593E-4CDC-B6F3-429360CDA53C",
      "Created" : "2019-12-14T14:34:47Z",
      "Updated" : null,
      "Latitude" : 51.379347,
      "Longitude" : 6.986615,
      "Name" : "Campingplatz Deichklause",
      "WaterFk" : "28E2B1B8-E353-4174-99A5-816229C68BD1",
      "Rating" : 0,
      "Comment" : null,
      "Street" : "Laupendahler Landstraße 140",
      "Postalcode" : "45239",
      "City" : "Essen, Heidhausen",
      "Costs" : -1.00,
      "Pro" : null,
      "Contra" : null,
      "PortFk" : null,
      "Country" : "DE"
    },
    {
      "Id" : "A2774742-EE4F-475E-A17C-4361DA060F12",
      "Created" : "2019-12-16T20:21:58Z",
      "Updated" : null,
      "Latitude" : 51.675296,
      "Longitude" : 7.753623,
      "Name" : "Club Nautico Hamm e.V.",
      "WaterFk" : "28CDF699-E727-447B-B3EE-9D10F8B2A5B2",
      "Rating" : 0,
      "Comment" : null,
      "Street" : "Lünener Str. 201",
      "Postalcode" : "59063",
      "City" : "Hamm",
      "Costs" : -1.00,
      "Pro" : null,
      "Contra" : null,
      "PortFk" : "53BC4C79-1B9D-4535-9F5F-23EE8A16DE8D",
      "Country" : "DE"
    },
    {
      "Id" : "AC473671-AEDD-4CFC-9952-4915C1163FEB",
      "Created" : "2020-02-08T20:24:59Z",
      "Updated" : null,
      "Latitude" : 52.656188,
      "Longitude" : 9.935837,
      "Name" : "Allerweg, Hambühren",
      "WaterFk" : "FFA035BD-4C18-4A12-9BC7-5E66FC29E149",
      "Rating" : 0,
      "Comment" : null,
      "Street" : "Allerweg",
      "Postalcode" : "29313",
      "City" : "Hambühren",
      "Costs" : -1.00,
      "Pro" : null,
      "Contra" : null,
      "PortFk" : null,
      "Country" : "DE"
    },
    {
      "Id" : "2925B095-A81C-4370-B07A-4B3139818F13",
      "Created" : "2019-12-18T08:27:36Z",
      "Updated" : "2020-02-08T20:27:36Z",
      "Latitude" : 52.782853,
      "Longitude" : 9.387722,
      "Name" : "Parkstraße, Rethem (Aller)",
      "WaterFk" : "FFA035BD-4C18-4A12-9BC7-5E66FC29E149",
      "Rating" : 0,
      "Comment" : null,
      "Street" : "Parkstraße 11",
      "Postalcode" : "27336",
      "City" : "Rethem (Aller)",
      "Costs" : 0.00,
      "Pro" : null,
      "Contra" : null,
      "PortFk" : null,
      "Country" : "DE"
    },
    {
      "Id" : "D437482B-91C5-4C6E-9ADC-4C4B028586F1",
      "Created" : "2020-01-08T06:23:45Z",
      "Updated" : null,
      "Latitude" : 51.168657,
      "Longitude" : 6.800639,
      "Name" : "Nikolausstraße, Düsseldorf",
      "WaterFk" : "A88EA916-5E6C-4D83-83A9-1D4FDFEF25EC",
      "Rating" : 0,
      "Comment" : null,
      "Street" : "Nikolausstraße 61",
      "Postalcode" : "40589",
      "City" : "Düsseldorf",
      "Costs" : -1.00,
      "Pro" : null,
      "Contra" : null,
      "PortFk" : null,
      "Country" : "DE"
    },
    {
      "Id" : "6EDCED7B-919D-4AB3-82B4-4FC046586882",
      "Created" : "2020-01-22T09:23:28Z",
      "Updated" : null,
      "Latitude" : 53.443191,
      "Longitude" : 10.100608,
      "Name" : "Ochsenwerder, Oortkatenufer",
      "WaterFk" : "DE3724FD-80A8-46F9-8B5B-DB378A84048C",
      "Rating" : 0,
      "Comment" : null,
      "Street" : "Oortkatenufer 12",
      "Postalcode" : "21037",
      "City" : "Hamburg, Ochsenwerder",
      "Costs" : -1.00,
      "Pro" : null,
      "Contra" : null,
      "PortFk" : "59D80B59-B654-404E-894D-480B13974130",
      "Country" : "DE"
    },
    {
      "Id" : "E0734EF1-7EF0-4553-B879-51972AE3A69A",
      "Created" : "2020-02-08T19:07:25Z",
      "Updated" : "2020-02-08T19:19:35Z",
      "Latitude" : 51.856732,
      "Longitude" : 12.221191,
      "Name" : "Leopoldshafen 4, Dessau-Roßlau",
      "WaterFk" : "DE3724FD-80A8-46F9-8B5B-DB378A84048C",
      "Rating" : 0,
      "Comment" : null,
      "Street" : "Leopoldshafen 4",
      "Postalcode" : "06846",
      "City" : "Dessau-Roßlau",
      "Costs" : -1.00,
      "Pro" : null,
      "Contra" : null,
      "PortFk" : "5E89ABBF-A164-41A9-9EDD-73B61454D189",
      "Country" : "DE"
    },
    {
      "Id" : "F0CAA49C-2D84-437A-A1F2-53F56A4E48FD",
      "Created" : "2019-12-10T08:02:42Z",
      "Updated" : null,
      "Latitude" : 51.5262,
      "Longitude" : 6.7,
      "Name" : "Rheinfähre Walsum",
      "WaterFk" : "A88EA916-5E6C-4D83-83A9-1D4FDFEF25EC",
      "Rating" : -1,
      "Comment" : null,
      "Street" : "Rheinstraße",
      "Postalcode" : "47179",
      "City" : "Alt-Walsum",
      "Costs" : 0.00,
      "Pro" : null,
      "Contra" : null,
      "PortFk" : null,
      "Country" : "DE"
    },
    {
      "Id" : "92A5A647-683A-4F3C-B2B1-605DF08B92C7",
      "Created" : "2020-01-28T21:51:00Z",
      "Updated" : null,
      "Latitude" : 51.073112,
      "Longitude" : 13.722178,
      "Name" : "Moritzburger Str., Pieschen",
      "WaterFk" : "DE3724FD-80A8-46F9-8B5B-DB378A84048C",
      "Rating" : 0,
      "Comment" : null,
      "Street" : "Moritzburger Str. 1",
      "Postalcode" : "01127",
      "City" : "Dresden, Pieschen",
      "Costs" : -1.00,
      "Pro" : null,
      "Contra" : null,
      "PortFk" : null,
      "Country" : "DE"
    },
    {
      "Id" : "954C42EF-892B-4F3F-AD15-61A47D7411E3",
      "Created" : "2020-01-29T13:39:52Z",
      "Updated" : null,
      "Latitude" : 51.16843,
      "Longitude" : 13.473645,
      "Name" : "Hochuferstraße, Meißen",
      "WaterFk" : "DE3724FD-80A8-46F9-8B5B-DB378A84048C",
      "Rating" : 0,
      "Comment" : null,
      "Street" : "Hochuferstraße 11",
      "Postalcode" : "01662 ",
      "City" : "Meißen",
      "Costs" : -1.00,
      "Pro" : null,
      "Contra" : null,
      "PortFk" : null,
      "Country" : "DE"
    },
    {
      "Id" : "BFD617FD-29C5-4614-B976-65320C0F5ECC",
      "Created" : "2019-12-10T08:02:42Z",
      "Updated" : null,
      "Latitude" : 51.3412,
      "Longitude" : 6.6823,
      "Name" : "Bootshaus Krekels",
      "WaterFk" : "A88EA916-5E6C-4D83-83A9-1D4FDFEF25EC",
      "Rating" : -1,
      "Comment" : null,
      "Street" : "Bataverstraße",
      "Postalcode" : "47809",
      "City" : "Krefeld, Gellep-Stratum",
      "Costs" : -1.00,
      "Pro" : null,
      "Contra" : null,
      "PortFk" : null,
      "Country" : "DE"
    },
    {
      "Id" : "1A9821D9-736D-493A-AA82-65EDA0AD345C",
      "Created" : "2019-12-18T08:09:31Z",
      "Updated" : null,
      "Latitude" : 53.178803,
      "Longitude" : 11.299788,
      "Name" : "Wasserwanderrastplatz Finds hier",
      "WaterFk" : "85189101-4FD6-466A-B1D1-A598BD85C591",
      "Rating" : 0,
      "Comment" : null,
      "Street" : "An der Elde 2",
      "Postalcode" : "19294",
      "City" : "Neu Kaliß",
      "Costs" : -1.00,
      "Pro" : null,
      "Contra" : null,
      "PortFk" : "F61163FD-C8B8-4436-90CE-5383F035238D",
      "Country" : "DE"
    },
    {
      "Id" : "D90AEF2C-2CE6-4ECC-8A4C-67DB13C7D4F0",
      "Created" : "2020-02-08T19:50:41Z",
      "Updated" : "2020-02-08T19:48:21Z",
      "Latitude" : 53.45618,
      "Longitude" : 12.270026,
      "Name" : "Dammstraße, Plau am See",
      "WaterFk" : "85189101-4FD6-466A-B1D1-A598BD85C591",
      "Rating" : 0,
      "Comment" : null,
      "Street" : "Dammstraße 25",
      "Postalcode" : "19395",
      "City" : "Plau am See",
      "Costs" : -1.00,
      "Pro" : null,
      "Contra" : null,
      "PortFk" : "F6ECE0A4-4564-4EA4-B564-ACBD1ABC35A6",
      "Country" : "DE"
    },
    {
      "Id" : "522D97D4-F5CD-4DE5-904C-685863B7EDCD",
      "Created" : "2020-01-29T06:00:23Z",
      "Updated" : null,
      "Latitude" : 51.114522,
      "Longitude" : 13.5708,
      "Name" : "Fährstelle Coswig-Kötitz",
      "WaterFk" : "DE3724FD-80A8-46F9-8B5B-DB378A84048C",
      "Rating" : 0,
      "Comment" : null,
      "Street" : "Fährweg 4",
      "Postalcode" : "01640",
      "City" : "Coswig",
      "Costs" : -1.00,
      "Pro" : null,
      "Contra" : null,
      "PortFk" : null,
      "Country" : "DE"
    },
    {
      "Id" : "3A98FB8A-53FC-43A6-ACA9-6A709668C8FD",
      "Created" : "2020-03-05T19:02:04Z",
      "Updated" : null,
      "Latitude" : 52.624571,
      "Longitude" : 10.041826,
      "Name" : "Nienburger Str., Celle",
      "WaterFk" : "FFA035BD-4C18-4A12-9BC7-5E66FC29E149",
      "Rating" : 0,
      "Comment" : null,
      "Street" : "Nienburger Str. 1002",
      "Postalcode" : "29225",
      "City" : "Celle",
      "Costs" : -1.00,
      "Pro" : null,
      "Contra" : null,
      "PortFk" : null,
      "Country" : "DE"
    },
    {
      "Id" : "0F33747F-531E-4AFB-B020-6AD46DD95320",
      "Created" : "2020-01-27T11:27:58Z",
      "Updated" : null,
      "Latitude" : 13.925444,
      "Longitude" : 50.964056,
      "Name" : "An der Elbe, Pirna",
      "WaterFk" : "DE3724FD-80A8-46F9-8B5B-DB378A84048C",
      "Rating" : 0,
      "Comment" : null,
      "Street" : "An der Elbe 12",
      "Postalcode" : "01796 ",
      "City" : "Pirna",
      "Costs" : -1.00,
      "Pro" : null,
      "Contra" : null,
      "PortFk" : null,
      "Country" : "DE"
    },
    {
      "Id" : "463EA513-A56A-4C00-8A57-6B6511548548",
      "Created" : "2020-01-28T14:21:38Z",
      "Updated" : null,
      "Latitude" : 51.070243,
      "Longitude" : 13.724156,
      "Name" : "Moritzburger Str., Leipziger Vorstadt",
      "WaterFk" : "DE3724FD-80A8-46F9-8B5B-DB378A84048C",
      "Rating" : 0,
      "Comment" : null,
      "Street" : "Moritzburger Str. 1",
      "Postalcode" : "01127 ",
      "City" : "Dresden, Leipziger Vorstadt",
      "Costs" : -1.00,
      "Pro" : null,
      "Contra" : null,
      "PortFk" : null,
      "Country" : "DE"
    },
    {
      "Id" : "297C177C-4E00-461F-9589-730F1B34370E",
      "Created" : "2020-02-08T19:09:49Z",
      "Updated" : "2020-02-08T19:19:35Z",
      "Latitude" : 51.855938,
      "Longitude" : 12.220797,
      "Name" : "Leopoldshafen 5, Dessau-Roßlau",
      "WaterFk" : "DE3724FD-80A8-46F9-8B5B-DB378A84048C",
      "Rating" : 0,
      "Comment" : null,
      "Street" : "Leopoldshafen 5",
      "Postalcode" : "06846",
      "City" : "Dessau-Roßlau",
      "Costs" : -1.00,
      "Pro" : null,
      "Contra" : null,
      "PortFk" : "5E89ABBF-A164-41A9-9EDD-73B61454D189",
      "Country" : "DE"
    },
    {
      "Id" : "4EA84C51-A84C-4AEC-BD52-7C9FBA0C0E92",
      "Created" : "2019-12-10T08:02:42Z",
      "Updated" : null,
      "Latitude" : 51.4474,
      "Longitude" : 6.7243,
      "Name" : "Pontwert",
      "WaterFk" : "28E2B1B8-E353-4174-99A5-816229C68BD1",
      "Rating" : -1,
      "Comment" : null,
      "Street" : "Am Bört",
      "Postalcode" : "47059",
      "City" : "Duisburg, Ruhrort",
      "Costs" : 10.00,
      "Pro" : null,
      "Contra" : null,
      "PortFk" : null,
      "Country" : "DE"
    },
    {
      "Id" : "F70B8ED9-0749-4E53-9A57-7D5112D9DEBF",
      "Created" : "2020-02-08T20:29:31Z",
      "Updated" : null,
      "Latitude" : 51.7383,
      "Longitude" : 3.8512,
      "Name" : "Haven Kloosternol, Scharendijke",
      "WaterFk" : "E0FA6B04-08A1-4850-910B-73AEE3E5F198",
      "Rating" : 0,
      "Comment" : null,
      "Street" : "Haven Kloosternol 2",
      "Postalcode" : "4322",
      "City" : "AK Scharendijke",
      "Costs" : -1.00,
      "Pro" : null,
      "Contra" : null,
      "PortFk" : null,
      "Country" : "NL"
    },
    {
      "Id" : "9B9B32E2-30F8-47CC-8E91-7E841446EF33",
      "Created" : "2019-12-18T06:37:16Z",
      "Updated" : null,
      "Latitude" : 53.231534,
      "Longitude" : 11.424667,
      "Name" : "Bootshafen Eldena",
      "WaterFk" : "85189101-4FD6-466A-B1D1-A598BD85C591",
      "Rating" : 0,
      "Comment" : null,
      "Street" : "Am Bootshafen 1",
      "Postalcode" : "19294",
      "City" : "Eldena",
      "Costs" : 6.00,
      "Pro" : null,
      "Contra" : null,
      "PortFk" : null,
      "Country" : "DE"
    },
    {
      "Id" : "B09E814B-33CA-4EB7-BE56-7F727EE82119",
      "Created" : "2020-01-29T20:41:41Z",
      "Updated" : null,
      "Latitude" : 53.233111,
      "Longitude" : 10.889537,
      "Name" : "Am Hafen, Neu Darchau",
      "WaterFk" : "DE3724FD-80A8-46F9-8B5B-DB378A84048C",
      "Rating" : 0,
      "Comment" : null,
      "Street" : "Am Hafen",
      "Postalcode" : "29490 ",
      "City" : "Neu Darchau",
      "Costs" : -1.00,
      "Pro" : null,
      "Contra" : null,
      "PortFk" : null,
      "Country" : "DE"
    },
    {
      "Id" : "112C082B-C4AC-4BFD-8436-7FAE8AED730E",
      "Created" : "2020-02-08T18:52:34Z",
      "Updated" : "2020-02-08T18:57:08Z",
      "Latitude" : 52.099301,
      "Longitude" : 11.665992,
      "Name" : "Elbweg, Fermersleben",
      "WaterFk" : "DE3724FD-80A8-46F9-8B5B-DB378A84048C",
      "Rating" : 0,
      "Comment" : null,
      "Street" : "Elbweg 2",
      "Postalcode" : "39122",
      "City" : " Magdeburg, Fermersleben",
      "Costs" : -1.00,
      "Pro" : null,
      "Contra" : null,
      "PortFk" : "6F331BA9-6997-4BF5-B228-CC3D25E7063F",
      "Country" : "DE"
    },
    {
      "Id" : "82F778F0-A33F-476B-8EA7-856A5F7384AC",
      "Created" : "2019-12-18T08:34:23Z",
      "Updated" : null,
      "Latitude" : 54.31555,
      "Longitude" : 8.949964,
      "Name" : "Tönning",
      "WaterFk" : "E2B58EA1-969F-4F72-A2A6-429C7FDD8F37",
      "Rating" : 0,
      "Comment" : null,
      "Street" : "Neustadt",
      "Postalcode" : "25832",
      "City" : "Tönning",
      "Costs" : 0.00,
      "Pro" : null,
      "Contra" : null,
      "PortFk" : null,
      "Country" : "DE"
    },
    {
      "Id" : "C474A9AC-10E9-4DDE-A963-859C742EDEAD",
      "Created" : "2020-01-06T08:49:06Z",
      "Updated" : null,
      "Latitude" : 53.908473,
      "Longitude" : 11.435612,
      "Name" : "Zum Yachthafen, Wismar",
      "WaterFk" : "0C5ECB8F-5C72-4E55-82C5-CFF6A068F5A4",
      "Rating" : 0,
      "Comment" : null,
      "Street" : "Zum Yachthafen 8",
      "Postalcode" : "23968",
      "City" : "Wismar",
      "Costs" : -1.00,
      "Pro" : null,
      "Contra" : null,
      "PortFk" : null,
      "Country" : "DE"
    },
    {
      "Id" : "F3FC8FD1-3808-4668-A3A7-8750E73E6EAA",
      "Created" : "2020-02-08T19:54:17Z",
      "Updated" : "2020-02-08T19:48:21Z",
      "Latitude" : 53.453374,
      "Longitude" : 12.276158,
      "Name" : "Seestraße, Plau am See",
      "WaterFk" : "85189101-4FD6-466A-B1D1-A598BD85C591",
      "Rating" : 0,
      "Comment" : null,
      "Street" : "Seestraße 2 b",
      "Postalcode" : "19395",
      "City" : "Plau am See",
      "Costs" : -1.00,
      "Pro" : null,
      "Contra" : null,
      "PortFk" : "F6ECE0A4-4564-4EA4-B564-ACBD1ABC35A6",
      "Country" : "DE"
    },
    {
      "Id" : "754F4D14-163F-4867-820B-889AD95A97C5",
      "Created" : "2020-01-28T14:15:46Z",
      "Updated" : null,
      "Latitude" : 51.052787,
      "Longitude" : 13.811628,
      "Name" : "Friedrich-Wieck-Straße, Loschwitz",
      "WaterFk" : "DE3724FD-80A8-46F9-8B5B-DB378A84048C",
      "Rating" : 0,
      "Comment" : null,
      "Street" : "Friedrich-Wieck-Straße 30",
      "Postalcode" : "01326",
      "City" : "Dresden, Loschwitz",
      "Costs" : -1.00,
      "Pro" : null,
      "Contra" : null,
      "PortFk" : null,
      "Country" : "DE"
    },
    {
      "Id" : "C5CEE642-616B-4F1F-A7CA-889C78A23F9E",
      "Created" : "2020-03-05T18:54:16Z",
      "Updated" : null,
      "Latitude" : 52.626978,
      "Longitude" : 10.087777,
      "Name" : "Wittinger Str., Celle",
      "WaterFk" : "FFA035BD-4C18-4A12-9BC7-5E66FC29E149",
      "Rating" : 0,
      "Comment" : null,
      "Street" : "Wittinger Str. 22",
      "Postalcode" : "29223",
      "City" : "Celle",
      "Costs" : -1.00,
      "Pro" : null,
      "Contra" : null,
      "PortFk" : null,
      "Country" : "DE"
    },
    {
      "Id" : "B5AADA18-A21B-433A-9CE0-89AFF95FB8F8",
      "Created" : "2020-01-29T13:46:31Z",
      "Updated" : null,
      "Latitude" : 51.43137,
      "Longitude" : 13.211898,
      "Name" : "Am Hafen, Mühlberg\/Elbe",
      "WaterFk" : "DE3724FD-80A8-46F9-8B5B-DB378A84048C",
      "Rating" : 0,
      "Comment" : null,
      "Street" : "Am Hafen 8",
      "Postalcode" : "04931",
      "City" : "Mühlberg\/Elbe",
      "Costs" : -1.00,
      "Pro" : null,
      "Contra" : null,
      "PortFk" : "8E7C3792-CCB4-464C-A45C-389D9A6833C2",
      "Country" : "DE"
    },
    {
      "Id" : "87B5F711-FBDE-4587-BFC9-8A7B32891CB8",
      "Created" : "2020-01-08T15:55:24Z",
      "Updated" : null,
      "Latitude" : 53.166057,
      "Longitude" : 7.364681,
      "Name" : "Am Sportboothafen, Weener",
      "WaterFk" : "ED0E2086-7425-4D2D-B372-D9B219D5638B",
      "Rating" : 0,
      "Comment" : null,
      "Street" : "Am Sportboothafen 1",
      "Postalcode" : "26826",
      "City" : "Weener",
      "Costs" : -1.00,
      "Pro" : null,
      "Contra" : null,
      "PortFk" : null,
      "Country" : "DE"
    },
    {
      "Id" : "2CD11660-8D64-4CA0-AD9F-8B558ABB7485",
      "Created" : "2019-12-14T15:26:07Z",
      "Updated" : null,
      "Latitude" : 52.039483,
      "Longitude" : 11.709626,
      "Name" : "Campingplatz Magdeburg",
      "WaterFk" : "DE3724FD-80A8-46F9-8B5B-DB378A84048C",
      "Rating" : 0,
      "Comment" : null,
      "Street" : "Burgwall 2A-2BA",
      "Postalcode" : "39218",
      "City" : "Schönebeck (Elbe)",
      "Costs" : -1.00,
      "Pro" : null,
      "Contra" : null,
      "PortFk" : null,
      "Country" : "DE"
    },
    {
      "Id" : "3EC52114-07DF-4E6F-83E7-8CB0C6A5E7D7",
      "Created" : "2019-12-10T08:02:42Z",
      "Updated" : null,
      "Latitude" : 52.6936,
      "Longitude" : 7.2885,
      "Name" : "An der Bleiche, Meppen",
      "WaterFk" : "ED0E2086-7425-4D2D-B372-D9B219D5638B",
      "Rating" : -1,
      "Comment" : null,
      "Street" : "",
      "Postalcode" : "49716",
      "City" : "Meppen, Altstadt",
      "Costs" : -1.00,
      "Pro" : null,
      "Contra" : null,
      "PortFk" : null,
      "Country" : "DE"
    },
    {
      "Id" : "C3D83E79-9968-4469-A18E-8D235AF4CC4A",
      "Created" : "2020-01-28T21:56:57Z",
      "Updated" : null,
      "Latitude" : 51.103244,
      "Longitude" : 13.623812,
      "Name" : "Uferstraße (2), Radebeul",
      "WaterFk" : "DE3724FD-80A8-46F9-8B5B-DB378A84048C",
      "Rating" : 0,
      "Comment" : null,
      "Street" : "Uferstraße 6A",
      "Postalcode" : "01445",
      "City" : "Radebeul",
      "Costs" : -1.00,
      "Pro" : null,
      "Contra" : null,
      "PortFk" : null,
      "Country" : "DE"
    },
    {
      "Id" : "88D768D9-308F-4B15-BA9C-9A4A23C2A709",
      "Created" : "2020-02-08T20:16:29Z",
      "Updated" : null,
      "Latitude" : 52.676159,
      "Longitude" : 9.878707,
      "Name" : "Südoheweg, Winsen (Aller)",
      "WaterFk" : "FFA035BD-4C18-4A12-9BC7-5E66FC29E149",
      "Rating" : 0,
      "Comment" : null,
      "Street" : "Südoheweg 3",
      "Postalcode" : "29308",
      "City" : "Winsen (Aller)",
      "Costs" : -1.00,
      "Pro" : null,
      "Contra" : null,
      "PortFk" : null,
      "Country" : "DE"
    },
    {
      "Id" : "A83F1027-7B6A-4CFE-8637-9B9A6445D304",
      "Created" : "2020-02-03T20:24:06Z",
      "Updated" : null,
      "Latitude" : 52.990198,
      "Longitude" : 11.746511,
      "Name" : "Elbstraße, Wittenberge",
      "WaterFk" : "DE3724FD-80A8-46F9-8B5B-DB378A84048C",
      "Rating" : 0,
      "Comment" : "Tankstelle",
      "Street" : "Elbstraße 22B",
      "Postalcode" : "19322",
      "City" : "Wittenberge",
      "Costs" : -1.00,
      "Pro" : null,
      "Contra" : null,
      "PortFk" : null,
      "Country" : "DE"
    },
    {
      "Id" : "6010D6A4-C4E0-4F8C-964C-9BA7FE98A5D3",
      "Created" : "2020-01-28T13:47:28Z",
      "Updated" : null,
      "Latitude" : 51.036273,
      "Longitude" : 13.83235,
      "Name" : "Altwachwitz, Wachwitz",
      "WaterFk" : "DE3724FD-80A8-46F9-8B5B-DB378A84048C",
      "Rating" : 0,
      "Comment" : null,
      "Street" : "Altwachwitz 14",
      "Postalcode" : "01326",
      "City" : "Dresden, Wachwitz",
      "Costs" : -1.00,
      "Pro" : null,
      "Contra" : null,
      "PortFk" : null,
      "Country" : "DE"
    },
    {
      "Id" : "4B2A1742-3B45-467A-AB46-9C8581072C10",
      "Created" : "2020-03-17T14:17:09Z",
      "Updated" : "2020-03-17T14:21:12Z",
      "Latitude" : 53.543778,
      "Longitude" : 10.043764,
      "Name" : "Bei der Grünen Brücke, Hamburg",
      "WaterFk" : "47A0A6FA-76F0-4683-A91D-2563966E2261",
      "Rating" : 0,
      "Comment" : null,
      "Street" : "Bei der Grünen Brücke 3",
      "Postalcode" : "20539",
      "City" : "Hamburg",
      "Costs" : -1.00,
      "Pro" : null,
      "Contra" : null,
      "PortFk" : "1DFBA539-2747-4304-81E6-2CA7F5C3CAAD",
      "Country" : "DE"
    },
    {
      "Id" : "DCF5CC63-1299-4F13-BFFA-9DD524DBD166",
      "Created" : "2020-01-29T20:32:10Z",
      "Updated" : null,
      "Latitude" : 53.376814,
      "Longitude" : 10.482617,
      "Name" : "Am Deich, Artlenburg",
      "WaterFk" : "DE3724FD-80A8-46F9-8B5B-DB378A84048C",
      "Rating" : 0,
      "Comment" : null,
      "Street" : "Am Deich",
      "Postalcode" : "21380",
      "City" : "Artlenburg",
      "Costs" : -1.00,
      "Pro" : null,
      "Contra" : null,
      "PortFk" : null,
      "Country" : "DE"
    },
    {
      "Id" : "125EEBF7-B478-4BC3-AE4F-9F927CADE6ED",
      "Created" : "2020-01-27T11:33:07Z",
      "Updated" : null,
      "Latitude" : 51.005478,
      "Longitude" : 13.86782,
      "Name" : "Zschierener Elbweg, Zschieren",
      "WaterFk" : "DE3724FD-80A8-46F9-8B5B-DB378A84048C",
      "Rating" : 0,
      "Comment" : null,
      "Street" : "Zschierener Elbweg",
      "Postalcode" : "01259",
      "City" : "Zschieren, Dresden",
      "Costs" : -1.00,
      "Pro" : null,
      "Contra" : null,
      "PortFk" : null,
      "Country" : "DE"
    },
    {
      "Id" : "1E91F805-181F-4498-B649-A57B1920A08A",
      "Created" : "2020-01-29T20:23:29Z",
      "Updated" : null,
      "Latitude" : 53.421768,
      "Longitude" : 10.372259,
      "Name" : "Fährstraße, Marschacht",
      "WaterFk" : "DE3724FD-80A8-46F9-8B5B-DB378A84048C",
      "Rating" : 0,
      "Comment" : null,
      "Street" : "Fährstraße",
      "Postalcode" : "21436",
      "City" : "Marschacht",
      "Costs" : -1.00,
      "Pro" : null,
      "Contra" : null,
      "PortFk" : null,
      "Country" : "DE"
    },
    {
      "Id" : "447F5752-1DD3-4830-AB19-A77C3A85F9EB",
      "Created" : "2020-01-14T14:35:04Z",
      "Updated" : null,
      "Latitude" : 51.436461,
      "Longitude" : 7.278593,
      "Name" : "Blumenau",
      "WaterFk" : "28E2B1B8-E353-4174-99A5-816229C68BD1",
      "Rating" : 0,
      "Comment" : null,
      "Street" : "Blumenau 7",
      "Postalcode" : "44801",
      "City" : "Bochum",
      "Costs" : -1.00,
      "Pro" : null,
      "Contra" : null,
      "PortFk" : "0800C05A-889D-4BB4-A927-342CB232B303",
      "Country" : "DE"
    },
    {
      "Id" : "907FFCE7-735D-4725-BE03-A7FCFE4CEF26",
      "Created" : "2019-12-18T08:12:21Z",
      "Updated" : null,
      "Latitude" : 49.354541,
      "Longitude" : 11.063741,
      "Name" : "Nürnberg Katzwang",
      "WaterFk" : "5F6F4FCF-E1CB-472E-8FD3-F331875E5153",
      "Rating" : 0,
      "Comment" : null,
      "Street" : "Rosine-Speicher-Straße",
      "Postalcode" : "90455",
      "City" : "Nürnberg",
      "Costs" : 0.00,
      "Pro" : null,
      "Contra" : null,
      "PortFk" : null,
      "Country" : "DE"
    },
    {
      "Id" : "EC118457-1C52-4E6C-BB6F-B1BB5FECFE00",
      "Created" : "2020-02-08T19:44:47Z",
      "Updated" : "2020-02-08T19:48:21Z",
      "Latitude" : 53.456857,
      "Longitude" : 12.268853,
      "Name" : "An der Metow, Plau am See",
      "WaterFk" : "85189101-4FD6-466A-B1D1-A598BD85C591",
      "Rating" : 0,
      "Comment" : null,
      "Street" : "An der Metow 12b",
      "Postalcode" : "19395",
      "City" : "Plau am See",
      "Costs" : -1.00,
      "Pro" : null,
      "Contra" : null,
      "PortFk" : "F6ECE0A4-4564-4EA4-B564-ACBD1ABC35A6",
      "Country" : "DE"
    },
    {
      "Id" : "1E97B7A7-1E4D-41E3-AA69-B4D2A6C69C50",
      "Created" : "2020-02-18T16:04:16Z",
      "Updated" : "2020-02-18T16:07:50Z",
      "Latitude" : 48.909747,
      "Longitude" : 11.92647,
      "Name" : "Hafenstraße, Saal an der Donau",
      "WaterFk" : "D19708CA-AC42-4AD4-8D62-E85722F946F6",
      "Rating" : 0,
      "Comment" : null,
      "Street" : "Hafenstraße 19",
      "Postalcode" : "93342 ",
      "City" : "Saal an der Donau",
      "Costs" : -1.00,
      "Pro" : null,
      "Contra" : null,
      "PortFk" : "4CFBA36B-39A9-4F63-B155-32D6279DE801",
      "Country" : "DE"
    },
    {
      "Id" : "3F2EB5BB-2795-42DD-8B67-B92BCE2FDADC",
      "Created" : "2019-12-18T08:24:51Z",
      "Updated" : null,
      "Latitude" : 50.592889,
      "Longitude" : 11.518853,
      "Name" : "Hohenwarte Lothramühle",
      "WaterFk" : "FACFC1F6-5887-4F51-A455-6EE85D41AFCD",
      "Rating" : 0,
      "Comment" : null,
      "Street" : "Lothramühle",
      "Postalcode" : "07338",
      "City" : "Drognitz",
      "Costs" : 0.00,
      "Pro" : null,
      "Contra" : null,
      "PortFk" : null,
      "Country" : "DE"
    },
    {
      "Id" : "5D9FA97C-DE11-4E9B-9000-BC648C797C39",
      "Created" : "2020-03-22T18:31:46Z",
      "Updated" : null,
      "Latitude" : 48.599746,
      "Longitude" : 13.369008,
      "Name" : "Wassersportfreunde Passau e.V.",
      "WaterFk" : "D19708CA-AC42-4AD4-8D62-E85722F946F6",
      "Rating" : 0,
      "Comment" : null,
      "Street" : "Schalterner Str. 1a",
      "Postalcode" : "94034",
      "City" : "Passau",
      "Costs" : -1.00,
      "Pro" : null,
      "Contra" : null,
      "PortFk" : null,
      "Country" : "DE"
    },
    {
      "Id" : "4AFCFF7F-7528-416B-87DF-BE8710C76DEB",
      "Created" : "2020-01-08T06:21:13Z",
      "Updated" : null,
      "Latitude" : 51.155495,
      "Longitude" : 6.825905,
      "Name" : "Itterdamm, Düsseldorf",
      "WaterFk" : "A88EA916-5E6C-4D83-83A9-1D4FDFEF25EC",
      "Rating" : 0,
      "Comment" : null,
      "Street" : "Itterdamm 51",
      "Postalcode" : "40589",
      "City" : "Düsseldorf",
      "Costs" : -1.00,
      "Pro" : null,
      "Contra" : null,
      "PortFk" : null,
      "Country" : "DE"
    },
    {
      "Id" : "E655AEE4-2000-483B-9717-BEF305668D41",
      "Created" : "2019-12-16T21:04:05Z",
      "Updated" : null,
      "Latitude" : 53.2297,
      "Longitude" : 8.4632,
      "Name" : "Timpen , Elsfleth",
      "WaterFk" : "0BC5BDB3-7E62-4C28-B4D3-FD4D3E7580C8",
      "Rating" : 0,
      "Comment" : null,
      "Street" : "Timpen",
      "Postalcode" : "26931",
      "City" : "Elsfleth",
      "Costs" : -1.00,
      "Pro" : null,
      "Contra" : null,
      "PortFk" : null,
      "Country" : "DE"
    },
    {
      "Id" : "88513D44-B029-4865-B9D7-C03FECEEE0F1",
      "Created" : "2020-02-08T20:06:23Z",
      "Updated" : null,
      "Latitude" : 52.926067,
      "Longitude" : 9.224866,
      "Name" : "Am Allerufer, Verden (Aller)",
      "WaterFk" : "FFA035BD-4C18-4A12-9BC7-5E66FC29E149",
      "Rating" : 0,
      "Comment" : null,
      "Street" : "Am Allerufer 5",
      "Postalcode" : "27283",
      "City" : "Verden (Aller)",
      "Costs" : -1.00,
      "Pro" : null,
      "Contra" : null,
      "PortFk" : null,
      "Country" : "DE"
    },
    {
      "Id" : "0226D745-E9BD-4E50-BE67-C332180E1C8F",
      "Created" : "2020-01-09T15:38:47Z",
      "Updated" : null,
      "Latitude" : 53.4446,
      "Longitude" : 8.4981,
      "Name" : "Fährstraße, Eidewarden",
      "WaterFk" : "F965ECF6-2057-479D-A571-3F4E30C1E493",
      "Rating" : 0,
      "Comment" : null,
      "Street" : "Fährstraße 19",
      "Postalcode" : "27612",
      "City" : "Loxstedt",
      "Costs" : 0.00,
      "Pro" : null,
      "Contra" : null,
      "PortFk" : null,
      "Country" : "DE"
    },
    {
      "Id" : "18DB0434-5D5E-48E4-8C4C-C7B25B3ED45F",
      "Created" : "2019-12-10T08:02:42Z",
      "Updated" : null,
      "Latitude" : 51.5238,
      "Longitude" : 6.7067,
      "Name" : "Alter Fähranleger",
      "WaterFk" : "A88EA916-5E6C-4D83-83A9-1D4FDFEF25EC",
      "Rating" : -1,
      "Comment" : null,
      "Street" : "Fährstraße",
      "Postalcode" : "47179",
      "City" : "Alt-Walsum",
      "Costs" : 0.00,
      "Pro" : null,
      "Contra" : null,
      "PortFk" : null,
      "Country" : "DE"
    },
    {
      "Id" : "7EEC0F69-8620-4FEE-B951-C7D08C2CC696",
      "Created" : "2020-03-29T08:58:53Z",
      "Updated" : null,
      "Latitude" : 48.904679,
      "Longitude" : 12.64538,
      "Name" : "Haid, Straubing",
      "WaterFk" : "D19708CA-AC42-4AD4-8D62-E85722F946F6",
      "Rating" : 0,
      "Comment" : null,
      "Street" : "Haid",
      "Postalcode" : "94315",
      "City" : "Straubing",
      "Costs" : -1.00,
      "Pro" : null,
      "Contra" : null,
      "PortFk" : null,
      "Country" : "DE"
    },
    {
      "Id" : "28C43507-AD81-4000-AA48-C8F6FCADC431",
      "Created" : "2020-01-10T10:22:52Z",
      "Updated" : null,
      "Latitude" : 49.103647,
      "Longitude" : 10.614087,
      "Name" : "Dennenlohe (Unterschwaningen)",
      "WaterFk" : "7447E6EA-8086-43D1-989F-176CF731B53D",
      "Rating" : 0,
      "Comment" : null,
      "Street" : "Dennenloher See 1",
      "Postalcode" : "91743",
      "City" : "Unterschwaningen",
      "Costs" : -1.00,
      "Pro" : null,
      "Contra" : null,
      "PortFk" : null,
      "Country" : "DE"
    },
    {
      "Id" : "C704A5A4-D778-4D33-B0FA-CB97630B95D3",
      "Created" : "2019-12-18T08:19:18Z",
      "Updated" : null,
      "Latitude" : 52.407689,
      "Longitude" : 9.738647,
      "Name" : "Hannover, Großer Kolonnenweg",
      "WaterFk" : "09A03B1F-9ECE-4086-94D8-462F98985851",
      "Rating" : 0,
      "Comment" : null,
      "Street" : "Großer Kolonnenweg",
      "Postalcode" : "30163",
      "City" : "Hannover, Vahrenwald",
      "Costs" : 0.00,
      "Pro" : null,
      "Contra" : null,
      "PortFk" : null,
      "Country" : "DE"
    },
    {
      "Id" : "8F56055A-5451-472C-9963-CDC71729A751",
      "Created" : "2020-02-08T19:14:50Z",
      "Updated" : "2020-02-08T19:19:35Z",
      "Latitude" : 51.855987,
      "Longitude" : 12.222277,
      "Name" : "Leopoldshafen 2, Dessau-Roßlau",
      "WaterFk" : "DE3724FD-80A8-46F9-8B5B-DB378A84048C",
      "Rating" : 0,
      "Comment" : null,
      "Street" : "Leopoldshafen 2",
      "Postalcode" : "06846",
      "City" : "Dessau-Roßlau",
      "Costs" : -1.00,
      "Pro" : null,
      "Contra" : null,
      "PortFk" : "5E89ABBF-A164-41A9-9EDD-73B61454D189",
      "Country" : "DE"
    },
    {
      "Id" : "FD8764E1-A05C-4FB2-8EE1-D01E7E03ECD4",
      "Created" : "2020-02-03T20:45:51Z",
      "Updated" : null,
      "Latitude" : 51.859239,
      "Longitude" : 6.097025,
      "Name" : "Slipanlage De Bijland, Tolkamer",
      "WaterFk" : "A88EA916-5E6C-4D83-83A9-1D4FDFEF25EC",
      "Rating" : 0,
      "Comment" : null,
      "Street" : "Zwarteweg 4",
      "Postalcode" : "6916",
      "City" : "KC Tolkamer",
      "Costs" : 7.00,
      "Pro" : null,
      "Contra" : null,
      "PortFk" : null,
      "Country" : "NL"
    },
    {
      "Id" : "8B10A18B-CD32-48F6-BDC2-D0564B321CDF",
      "Created" : "2020-01-30T13:43:05Z",
      "Updated" : null,
      "Latitude" : 53.079561,
      "Longitude" : 11.463279,
      "Name" : "Fährhausstraße, Lenzen (Elbe)",
      "WaterFk" : "DE3724FD-80A8-46F9-8B5B-DB378A84048C",
      "Rating" : 0,
      "Comment" : null,
      "Street" : "Fährhausstraße",
      "Postalcode" : "19309",
      "City" : "Lenzen (Elbe)",
      "Costs" : -1.00,
      "Pro" : null,
      "Contra" : null,
      "PortFk" : null,
      "Country" : "DE"
    },
    {
      "Id" : "E58DE40F-99AE-4FEF-A5F9-D30B367F7DC7",
      "Created" : "2020-01-29T20:21:12Z",
      "Updated" : null,
      "Latitude" : 53.422333,
      "Longitude" : 10.2877,
      "Name" : "Elbstorfer Str., Drage",
      "WaterFk" : "DE3724FD-80A8-46F9-8B5B-DB378A84048C",
      "Rating" : 0,
      "Comment" : null,
      "Street" : "Elbstorfer Str. 59",
      "Postalcode" : "21423",
      "City" : "Drage",
      "Costs" : -1.00,
      "Pro" : null,
      "Contra" : null,
      "PortFk" : null,
      "Country" : "DE"
    },
    {
      "Id" : "F3986371-5F03-485E-B264-D51CFD295172",
      "Created" : "2020-01-29T20:29:06Z",
      "Updated" : null,
      "Latitude" : 53.396021,
      "Longitude" : 10.422491,
      "Name" : "Elbuferstraße, Tespe",
      "WaterFk" : "DE3724FD-80A8-46F9-8B5B-DB378A84048C",
      "Rating" : 0,
      "Comment" : null,
      "Street" : "Elbuferstraße 120",
      "Postalcode" : "21395",
      "City" : "Tespe",
      "Costs" : -1.00,
      "Pro" : null,
      "Contra" : null,
      "PortFk" : null,
      "Country" : "DE"
    },
    {
      "Id" : "3953D854-393B-44DF-857B-D872AD9430A2",
      "Created" : "2020-01-29T15:13:16Z",
      "Updated" : null,
      "Latitude" : 51.551873,
      "Longitude" : 13.014873,
      "Name" : "Lünette-Loßwig, Torgau",
      "WaterFk" : "DE3724FD-80A8-46F9-8B5B-DB378A84048C",
      "Rating" : 0,
      "Comment" : null,
      "Street" : "Lünette-Loßwig 1",
      "Postalcode" : "04860",
      "City" : "Torgau",
      "Costs" : -1.00,
      "Pro" : null,
      "Contra" : null,
      "PortFk" : null,
      "Country" : "DE"
    },
    {
      "Id" : "0782F583-4E6B-4455-8C02-D8C1FE0BE7AE",
      "Created" : "2020-01-29T15:19:10Z",
      "Updated" : null,
      "Latitude" : 51.861289,
      "Longitude" : 12.659059,
      "Name" : "Dresdener Ring, Lutherstadt Wittenberg",
      "WaterFk" : "DE3724FD-80A8-46F9-8B5B-DB378A84048C",
      "Rating" : 0,
      "Comment" : null,
      "Street" : "Dresdener Ring",
      "Postalcode" : "06886",
      "City" : "Lutherstadt Wittenberg",
      "Costs" : -1.00,
      "Pro" : null,
      "Contra" : null,
      "PortFk" : null,
      "Country" : "DE"
    },
    {
      "Id" : "9600537D-BD52-4C61-8941-DD5D00A4E4A2",
      "Created" : "2020-01-09T15:47:18Z",
      "Updated" : null,
      "Latitude" : 53.3008,
      "Longitude" : 7.7506,
      "Name" : "Uferstraße, Uplengen-Remels",
      "WaterFk" : "AF9303E7-8E3F-42A5-B33A-730DDA3B4CB9",
      "Rating" : 0,
      "Comment" : null,
      "Street" : "Uferstraße 6",
      "Postalcode" : "26670",
      "City" : "Uplengen-Remels",
      "Costs" : 0.00,
      "Pro" : null,
      "Contra" : null,
      "PortFk" : null,
      "Country" : "DE"
    },
    {
      "Id" : "9F232734-8907-4A21-9B76-DE97FEB54A3D",
      "Created" : "2019-12-10T08:02:42Z",
      "Updated" : null,
      "Latitude" : 51.4985,
      "Longitude" : 6.7147,
      "Name" : "Woltershof",
      "WaterFk" : "A88EA916-5E6C-4D83-83A9-1D4FDFEF25EC",
      "Rating" : -1,
      "Comment" : null,
      "Street" : "Woltershofer Straße 18",
      "Postalcode" : "47199",
      "City" : "Baerl",
      "Costs" : 0.00,
      "Pro" : null,
      "Contra" : null,
      "PortFk" : null,
      "Country" : "DE"
    },
    {
      "Id" : "69609E96-F8AE-4AB1-96BB-DEA6C2596E7B",
      "Created" : "2020-02-18T16:10:28Z",
      "Updated" : null,
      "Latitude" : 48.904543,
      "Longitude" : 11.949134,
      "Name" : "Regensburger Str., Saal an der Donau",
      "WaterFk" : "D19708CA-AC42-4AD4-8D62-E85722F946F6",
      "Rating" : 0,
      "Comment" : null,
      "Street" : "Regensburger Str. 38",
      "Postalcode" : "93342 ",
      "City" : "Saal an der Donau",
      "Costs" : -1.00,
      "Pro" : null,
      "Contra" : null,
      "PortFk" : null,
      "Country" : "DE"
    },
    {
      "Id" : "082D802D-E072-46C2-B455-DEA7D29CD3F0",
      "Created" : "2020-01-27T11:30:10Z",
      "Updated" : null,
      "Latitude" : 50.9945,
      "Longitude" : 13.877125,
      "Name" : "Zschierener Elbweg, Dresden",
      "WaterFk" : "DE3724FD-80A8-46F9-8B5B-DB378A84048C",
      "Rating" : 0,
      "Comment" : null,
      "Street" : "Zschierener Elbweg",
      "Postalcode" : "01259",
      "City" : "Dresden",
      "Costs" : -1.00,
      "Pro" : null,
      "Contra" : null,
      "PortFk" : null,
      "Country" : "DE"
    },
    {
      "Id" : "2B9F5416-B673-44FD-AC91-E1EFDAB414F3",
      "Created" : "2019-12-14T14:27:56Z",
      "Updated" : null,
      "Latitude" : 51.360029,
      "Longitude" : 6.935497,
      "Name" : "Zur Alten Fähre, Kettwig",
      "WaterFk" : "28E2B1B8-E353-4174-99A5-816229C68BD1",
      "Rating" : 5,
      "Comment" : null,
      "Street" : "Zur Alten Fähre 31",
      "Postalcode" : "45219",
      "City" : "Essen, Kettwig",
      "Costs" : 0.00,
      "Pro" : null,
      "Contra" : null,
      "PortFk" : null,
      "Country" : "DE"
    },
    {
      "Id" : "91ACB13E-0B81-46E8-BFBF-E44D83C561DB",
      "Created" : "2020-02-03T20:18:28Z",
      "Updated" : null,
      "Latitude" : 53.040423,
      "Longitude" : 11.643073,
      "Name" : "Cumlosen, Elbdeichvorland",
      "WaterFk" : "DE3724FD-80A8-46F9-8B5B-DB378A84048C",
      "Rating" : 0,
      "Comment" : null,
      "Street" : "Bundesstraße 195",
      "Postalcode" : "19322",
      "City" : "Elbdeichvorland",
      "Costs" : -1.00,
      "Pro" : null,
      "Contra" : null,
      "PortFk" : null,
      "Country" : "DE"
    },
    {
      "Id" : "6564A149-DBD6-4BD1-BCB6-E5132634FD28",
      "Created" : "2019-12-16T19:38:13Z",
      "Updated" : null,
      "Latitude" : 51.562317,
      "Longitude" : 7.248101,
      "Name" : "Herne - Gneisenaustraße 196",
      "WaterFk" : "30081C46-BBE9-4AC7-894C-4852476D66E5",
      "Rating" : 0,
      "Comment" : null,
      "Street" : "Gneisenaustraße 196",
      "Postalcode" : "44628",
      "City" : "Herne",
      "Costs" : -1.00,
      "Pro" : null,
      "Contra" : null,
      "PortFk" : null,
      "Country" : "DE"
    },
    {
      "Id" : "0E5A6758-9009-4498-AF0F-E65757A36D85",
      "Created" : "2020-02-08T20:08:28Z",
      "Updated" : null,
      "Latitude" : 52.841064,
      "Longitude" : 9.306553,
      "Name" : "Amtsstraße, Dörverden",
      "WaterFk" : "FFA035BD-4C18-4A12-9BC7-5E66FC29E149",
      "Rating" : 0,
      "Comment" : null,
      "Street" : "Amtsstraße 10",
      "Postalcode" : "27313",
      "City" : "Dörverden",
      "Costs" : -1.00,
      "Pro" : null,
      "Contra" : null,
      "PortFk" : null,
      "Country" : "DE"
    },
    {
      "Id" : "27C00636-C016-4F09-B694-E723DF6E1141",
      "Created" : "2020-02-03T20:53:32Z",
      "Updated" : "2020-02-03T20:57:17Z",
      "Latitude" : 51.257417,
      "Longitude" : 6.004015,
      "Name" : "Hanssum, Neer",
      "WaterFk" : "38CE505B-5BD5-4561-B87F-A858CA226099",
      "Rating" : 0,
      "Comment" : null,
      "Street" : "Hanssum 40B",
      "Postalcode" : "6086",
      "City" : "BV Neer",
      "Costs" : -1.00,
      "Pro" : null,
      "Contra" : null,
      "PortFk" : "A1982381-A40A-464E-A86C-99164C5F6ABB",
      "Country" : "NL"
    },
    {
      "Id" : "CFA6BDFF-8503-462E-B93F-EB2C5F54209D",
      "Created" : "2020-02-03T20:27:50Z",
      "Updated" : "2020-02-03T20:30:48Z",
      "Latitude" : 52.674687,
      "Longitude" : 12.011789,
      "Name" : "An der Elbe, Arneburg",
      "WaterFk" : "DE3724FD-80A8-46F9-8B5B-DB378A84048C",
      "Rating" : 0,
      "Comment" : null,
      "Street" : "An der Elbe 10A",
      "Postalcode" : "39596",
      "City" : "Arneburg",
      "Costs" : -1.00,
      "Pro" : null,
      "Contra" : null,
      "PortFk" : "728F4D97-07FA-4F73-9A61-3A761DCEC919",
      "Country" : "DE"
    },
    {
      "Id" : "A4B6F7A4-2616-4D17-8482-EC9A2E3BB5A8",
      "Created" : "2020-03-29T08:52:49Z",
      "Updated" : null,
      "Latitude" : 48.712009,
      "Longitude" : 13.088636,
      "Name" : "Ottach, Osterhofen",
      "WaterFk" : "D19708CA-AC42-4AD4-8D62-E85722F946F6",
      "Rating" : 0,
      "Comment" : null,
      "Street" : "Ottach 1",
      "Postalcode" : "94486",
      "City" : "Osterhofen",
      "Costs" : -1.00,
      "Pro" : null,
      "Contra" : null,
      "PortFk" : null,
      "Country" : "DE"
    },
    {
      "Id" : "A27C9495-0CAC-474C-9B55-EDD154E58ADC",
      "Created" : "2020-03-05T18:56:06Z",
      "Updated" : "2020-03-05T18:59:54Z",
      "Latitude" : 52.626068,
      "Longitude" : 10.071735,
      "Name" : "Hafenstraße, Celle",
      "WaterFk" : "FFA035BD-4C18-4A12-9BC7-5E66FC29E149",
      "Rating" : 0,
      "Comment" : null,
      "Street" : "Hafenstraße 19",
      "Postalcode" : "29223",
      "City" : "Celle",
      "Costs" : -1.00,
      "Pro" : null,
      "Contra" : null,
      "PortFk" : "A83DE382-CE7F-4F66-8B94-DF4CE879C1BD",
      "Country" : "DE"
    },
    {
      "Id" : "C893B6A5-7F21-4E3D-AA9E-F40207ACC1C9",
      "Created" : "2020-01-08T06:30:04Z",
      "Updated" : null,
      "Latitude" : 51.254732,
      "Longitude" : 6.741356,
      "Name" : "Rotterdamer, Düsseldorf",
      "WaterFk" : "A88EA916-5E6C-4D83-83A9-1D4FDFEF25EC",
      "Rating" : 0,
      "Comment" : null,
      "Street" : "Rotterdamer Str. 120",
      "Postalcode" : "40474",
      "City" : "Düsseldorf",
      "Costs" : -1.00,
      "Pro" : null,
      "Contra" : null,
      "PortFk" : null,
      "Country" : "DE"
    },
    {
      "Id" : "29B24FCB-73DC-453E-9808-F5B94CF1352D",
      "Created" : "2020-01-29T15:24:36Z",
      "Updated" : "2020-01-29T15:27:46Z",
      "Latitude" : 53.400713,
      "Longitude" : 10.188263,
      "Name" : "Zollenspieker-Hauptdeich, Kirchwerder",
      "WaterFk" : "DE3724FD-80A8-46F9-8B5B-DB378A84048C",
      "Rating" : 0,
      "Comment" : null,
      "Street" : "Zollenspieker-Hauptdeich 112",
      "Postalcode" : "21037",
      "City" : "Hamburg, Kirchwerder",
      "Costs" : -1.00,
      "Pro" : null,
      "Contra" : null,
      "PortFk" : "78D9728D-8CAB-43EB-BEFA-BD0D45D60146",
      "Country" : "DE"
    },
    {
      "Id" : "43487053-A336-41AD-8D36-F61D752C516D",
      "Created" : "2020-02-08T19:37:37Z",
      "Updated" : null,
      "Latitude" : 53.425742,
      "Longitude" : 11.844477,
      "Name" : "Fischerdamm, Parchim",
      "WaterFk" : "85189101-4FD6-466A-B1D1-A598BD85C591",
      "Rating" : 0,
      "Comment" : null,
      "Street" : "Fischerdamm 11a",
      "Postalcode" : "19370",
      "City" : "Parchim",
      "Costs" : -1.00,
      "Pro" : null,
      "Contra" : null,
      "PortFk" : null,
      "Country" : "DE"
    },
    {
      "Id" : "8D2AFE4A-31AB-4D4A-BA6A-F7173D179545",
      "Created" : "2020-01-29T15:15:09Z",
      "Updated" : null,
      "Latitude" : 51.556093,
      "Longitude" : 13.011434,
      "Name" : "Loßwiger Weg, Torgau",
      "WaterFk" : "DE3724FD-80A8-46F9-8B5B-DB378A84048C",
      "Rating" : 0,
      "Comment" : null,
      "Street" : "Loßwiger Weg 2",
      "Postalcode" : "04860",
      "City" : "Torgau",
      "Costs" : -1.00,
      "Pro" : null,
      "Contra" : null,
      "PortFk" : null,
      "Country" : "DE"
    },
    {
      "Id" : "F54068B8-F8D4-4E13-9EB2-F9E4B04037CF",
      "Created" : "2019-12-17T07:00:16Z",
      "Updated" : null,
      "Latitude" : 52.610742,
      "Longitude" : 12.002421,
      "Name" : "Slipanlage Storkau",
      "WaterFk" : "DE3724FD-80A8-46F9-8B5B-DB378A84048C",
      "Rating" : 0,
      "Comment" : null,
      "Street" : "Am Över",
      "Postalcode" : "39590",
      "City" : "Storkau (Elbe)",
      "Costs" : -1.00,
      "Pro" : null,
      "Contra" : null,
      "PortFk" : null,
      "Country" : "DE"
    },
    {
      "Id" : "245F8D58-E305-4B91-9B0C-FD28BC1841C0",
      "Created" : "2020-01-09T14:17:24Z",
      "Updated" : null,
      "Latitude" : 53.325227,
      "Longitude" : 8.486321,
      "Name" : "Unterweser, Brake",
      "WaterFk" : "F965ECF6-2057-479D-A571-3F4E30C1E493",
      "Rating" : 0,
      "Comment" : "Die Slipanlage befindet sich an der Heukaje, direkt unterhalb der Touristinformation in Brake.\r\nDiese ist aus Sicherheitsgründen verschlossen, der Schlüssel ist gegen ein Pfand von 50,- € in der Touristinformation erhältlich.\r\nKontakt: Brake Tourismus und Marketing e. V. (04401 19433)",
      "Street" : "Kaje 9",
      "Postalcode" : "26919",
      "City" : "Brake (Unterweser)",
      "Costs" : 0.00,
      "Pro" : null,
      "Contra" : null,
      "PortFk" : null,
      "Country" : "DE"
    },
    {
      "Id" : "96F4DE9A-D1DE-47ED-8C2D-FE4486255670",
      "Created" : "2020-03-29T08:55:39Z",
      "Updated" : null,
      "Latitude" : 48.713142,
      "Longitude" : 13.090374,
      "Name" : "Ottach, Winzer",
      "WaterFk" : "D19708CA-AC42-4AD4-8D62-E85722F946F6",
      "Rating" : 0,
      "Comment" : null,
      "Street" : "Ottach 2",
      "Postalcode" : "94577",
      "City" : "Winzer",
      "Costs" : -1.00,
      "Pro" : null,
      "Contra" : null,
      "PortFk" : null,
      "Country" : "DE"
    }
  ]
